City,Lat,Lng,Max Temp,Humidity,Cloudiness,Wind Speed,Country,Date
hermanus,-34.4187,19.2345,73.99,70.0,95.0,3.0,ZA,1616706930.0
mataura,-46.1927,168.8643,55.0,97.0,73.0,3.0,NZ,1616706932.0
kalaiya,27.0327,85.0022,68.63,16.0,0.0,4.63,NP,1616706934.0
hilo,19.7297,-155.09,80.6,65.0,90.0,10.36,US,1616706936.0
longyearbyen,78.2186,15.6401,23.0,68.0,75.0,13.8,SJ,1616706938.0
rikitea,-23.1203,-134.9692,79.54,73.0,61.0,18.41,PF,1616706994.0
sinnamary,5.3833,-52.95,77.88,84.0,16.0,9.98,GF,1616707126.0
gat,31.61,34.7642,57.0,84.0,4.0,4.0,IL,1616706903.0
atuona,-9.8,-139.0333,80.4,72.0,45.0,19.82,PF,1616707000.0
torbay,47.6666,-52.7314,46.4,93.0,90.0,3.85,CA,1616707002.0
lahat,-3.8,103.5333,72.86,97.0,100.0,1.05,ID,1616707004.0
beloha,-25.1667,45.05,71.4,81.0,0.0,9.95,MG,1616707006.0
bathsheba,13.2167,-59.5167,80.6,57.0,40.0,18.41,BB,1616707011.0
klaksvik,62.2266,-6.589,41.0,93.0,75.0,8.05,FO,1616707013.0
kholodnyy,62.7167,147.95,-22.07,99.0,99.0,2.8,RU,1616707019.0
albany,42.6001,-73.9662,71.01,69.0,80.0,1.01,US,1616706987.0
kapaa,22.0752,-159.319,80.01,83.0,1.0,4.61,US,1616707022.0
namibe,-15.1961,12.1522,73.45,83.0,100.0,6.04,AO,1616706612.0
ushuaia,-54.8,-68.3,50.0,50.0,40.0,24.16,AR,1616707026.0
kaitangata,-46.2817,169.8464,55.8,76.0,97.0,3.51,NZ,1616707029.0
leningradskiy,69.3833,178.4167,-13.86,98.0,98.0,1.16,RU,1616707031.0
vaini,-21.2,-175.2,80.6,89.0,75.0,6.91,TO,1616707033.0
domat,46.8348,9.4508,41.0,74.0,75.0,2.3,CH,1616707035.0
airai,-8.9266,125.4092,59.41,95.0,90.0,2.21,TL,1616707036.0
north branch,39.9728,-98.3717,48.0,68.0,90.0,1.01,US,1616707038.0
requena,39.4883,-1.1004,55.0,84.0,100.0,2.95,ES,1616707043.0
tasiilaq,65.6145,-37.6368,3.2,51.0,75.0,2.3,GL,1616707046.0
lebu,-37.6167,-73.65,57.47,66.0,0.0,15.5,CL,1616707048.0
ratnagiri,16.9833,73.3,85.17,36.0,73.0,6.55,IN,1616707050.0
thompson,55.7435,-97.8558,14.0,62.0,90.0,6.91,CA,1616707052.0
khani,41.9563,42.9566,41.0,93.0,75.0,6.91,GE,1616707055.0
laguna,38.421,-121.4238,62.6,45.0,1.0,9.22,US,1616706988.0
altamira,-3.2033,-52.2064,80.6,89.0,75.0,3.44,BR,1616707059.0
jasper,37.2001,-94.3502,48.99,93.0,90.0,12.66,US,1616707060.0
barrow,71.2906,-156.7887,-5.8,65.0,1.0,12.66,US,1616706812.0
pahrump,36.2083,-115.9839,64.99,19.0,66.0,8.01,US,1616707064.0
narasannapeta,18.4167,84.05,77.41,70.0,14.0,3.98,IN,1616707065.0
berlevag,70.8578,29.0864,33.8,60.0,75.0,24.16,NO,1616706609.0
hithadhoo,-0.6,73.0833,82.72,72.0,13.0,12.37,MV,1616707070.0
parthenay,46.6667,-0.4167,46.99,74.0,6.0,4.38,FR,1616707072.0
wajima,37.4,136.9,49.46,83.0,51.0,10.94,JP,1616707074.0
oda,35.1833,132.5,49.62,61.0,0.0,8.93,JP,1616707079.0
nishihara,26.1842,127.7558,69.8,77.0,75.0,10.36,JP,1616707212.0
wukari,7.85,9.7833,85.42,52.0,99.0,11.3,NG,1616707215.0
dingle,10.9995,122.6711,74.82,93.0,100.0,7.25,PH,1616707217.0
ancud,-41.8697,-73.8203,61.0,63.0,0.0,6.91,CL,1616707220.0
kisangani,0.5167,25.2,70.45,99.0,100.0,2.01,CD,1616707222.0
avarua,-21.2078,-159.775,86.0,74.0,20.0,21.85,CK,1616707224.0
gamba,-2.65,10.0,74.7,89.0,100.0,6.82,GA,1616707226.0
kenai,60.5544,-151.2583,35.6,86.0,90.0,5.75,US,1616707228.0
bandarbeyla,9.4942,50.8122,77.88,68.0,23.0,9.91,SO,1616707229.0
gorom-gorom,14.4439,-0.2361,86.54,8.0,100.0,13.67,BF,1616707231.0
tuktoyaktuk,69.4541,-133.0374,-0.4,85.0,75.0,3.44,CA,1616707233.0
ndende,-2.4008,11.3581,72.27,96.0,95.0,4.27,GA,1616707036.0
bengkulu,-3.8004,102.2655,76.48,83.0,99.0,3.22,ID,1616707238.0
awbari,26.5921,12.7805,56.82,30.0,0.0,6.71,LY,1616707243.0
quelimane,-17.8786,36.8883,77.0,88.0,40.0,2.73,MZ,1616707245.0
saskylakh,71.9167,114.0833,-20.79,100.0,100.0,4.25,RU,1616707248.0
aden,12.7794,45.0367,78.93,67.0,30.0,16.33,YE,1616707121.0
kaeo,-35.1,173.7833,63.0,94.0,100.0,1.99,NZ,1616707254.0
tonstad,58.6626,6.7169,41.0,93.0,91.0,6.13,NO,1616707256.0
sorland,67.667,12.6934,30.2,93.0,0.0,4.61,NO,1616707258.0
taoudenni,22.6783,-3.9836,72.81,10.0,0.0,11.45,ML,1616707260.0
saint-augustin,51.226,-58.6502,33.15,99.0,100.0,11.05,CA,1616707262.0
kruisfontein,-34.0033,24.7314,68.0,85.0,10.0,3.0,ZA,1616707263.0
jamestown,42.097,-79.2353,68.0,40.0,1.0,8.08,US,1616707265.0
hobart,-42.8794,147.3294,57.0,71.0,20.0,5.75,AU,1616707162.0
zaraza,9.3503,-65.3245,88.81,44.0,99.0,8.75,VE,1616707269.0
juneau,58.3019,-134.4197,35.6,80.0,90.0,11.5,US,1616707270.0
nouna,12.7333,-3.8667,91.74,11.0,53.0,11.7,BF,1616707272.0
qaanaaq,77.484,-69.3632,-17.03,57.0,11.0,6.35,GL,1616707274.0
busselton,-33.65,115.3333,52.0,96.0,39.0,7.25,AU,1616707276.0
bluff,-46.6,168.3333,55.99,97.0,98.0,1.99,NZ,1616707281.0
touros,-5.1989,-35.4608,75.2,94.0,75.0,2.3,BR,1616707284.0
madimba,-10.4,40.3333,77.0,94.0,20.0,9.22,TZ,1616707286.0
bucak,37.4592,30.595,46.0,69.0,75.0,13.8,TR,1616707288.0
mogadishu,2.0371,45.3438,79.54,70.0,44.0,16.28,SO,1616707291.0
komsomolskiy,40.4272,71.7189,64.4,36.0,100.0,2.3,UZ,1616707293.0
vyartsilya,62.1764,30.693,29.89,96.0,20.0,3.58,RU,1616707295.0
ashdod,31.8167,34.65,55.99,71.0,20.0,4.61,IL,1616707296.0
magalia,39.8121,-121.5783,64.99,31.0,40.0,6.91,US,1616707298.0
mantua,45.1667,10.7833,50.0,66.0,18.0,5.01,IT,1616707300.0
namatanai,-3.6667,152.4333,80.74,76.0,92.0,7.43,PG,1616707302.0
guarapuava,-25.3953,-51.4581,65.98,91.0,84.0,1.01,BR,1616707304.0
bredasdorp,-34.5322,20.0403,59.0,94.0,45.0,2.3,ZA,1616707305.0
chuy,-33.6971,-53.4616,73.65,84.0,100.0,12.26,UY,1616707307.0
shanhetun,44.7,127.2,34.12,95.0,97.0,3.85,CN,1616707309.0
skibbereen,51.55,-9.2667,46.4,87.0,40.0,20.71,IE,1616707314.0
aripuana,-9.1667,-60.6333,74.46,90.0,99.0,1.83,BR,1616707316.0
saldanha,-33.0117,17.9442,62.6,88.0,58.0,5.75,ZA,1616707317.0
kushiro,42.975,144.3747,38.32,92.0,100.0,10.67,JP,1616707319.0
sovetskiy,61.3614,63.5842,32.49,90.0,80.0,9.71,RU,1616707321.0
vanimo,-2.6741,141.3028,77.43,88.0,100.0,3.65,PG,1616707323.0
chokurdakh,70.6333,147.9167,-32.69,100.0,93.0,3.83,RU,1616707325.0
hasaki,35.7333,140.8333,41.0,100.0,90.0,1.14,JP,1616707326.0
aklavik,68.2191,-135.0107,23.0,46.0,72.0,5.75,CA,1616707328.0
liuhe,42.2401,125.7172,36.28,54.0,32.0,4.27,CN,1616707330.0
butaritari,3.0707,172.7902,81.1,80.0,100.0,14.63,KI,1616707332.0
saint-philippe,-21.3585,55.7679,77.0,83.0,20.0,5.75,RE,1616707334.0
price,39.5994,-110.8107,42.8,39.0,90.0,12.66,US,1616707335.0
codrington,-38.2667,141.9667,51.94,95.0,63.0,9.26,AU,1616707337.0
taunggyi,20.7833,97.0333,64.0,51.0,6.0,2.93,MM,1616707339.0
labuhan,-6.8844,112.2051,78.13,85.0,62.0,2.33,ID,1616707345.0
mahebourg,-20.4081,57.7,75.2,94.0,40.0,12.66,MU,1616707347.0
mahajanga,-15.7167,46.3167,80.6,83.0,20.0,4.61,MG,1616707350.0
bilari,28.6333,78.8,66.87,30.0,0.0,9.04,IN,1616707352.0
georgetown,5.4112,100.3354,77.0,94.0,20.0,2.3,MY,1616707356.0
calamar,10.2511,-74.9146,89.6,58.0,40.0,13.8,CO,1616707359.0
provideniya,64.3833,-173.3,10.4,79.0,90.0,13.42,RU,1616707362.0
adamas,36.7333,24.4333,41.0,70.0,28.0,6.91,GR,1616707367.0
souillac,-20.5167,57.5167,75.2,94.0,40.0,12.66,MU,1616707369.0
mayo,38.8876,-76.5119,64.99,94.0,1.0,6.91,US,1616707371.0
khatanga,71.9667,102.5,-9.87,98.0,99.0,2.86,RU,1616707374.0
juba,4.8517,31.5825,88.09,29.0,53.0,1.88,SS,1616707378.0
iqaluit,63.7506,-68.5145,-18.0,63.0,1.0,14.97,CA,1616707379.0
tarauaca,-8.1614,-70.7656,80.71,91.0,36.0,2.66,BR,1616707158.0
geraldton,-28.7667,114.6,57.2,82.0,0.0,8.05,AU,1616707386.0
tuatapere,-46.1333,167.6833,55.99,97.0,100.0,1.99,NZ,1616707389.0
kahului,20.8947,-156.47,82.4,65.0,20.0,5.75,US,1616707351.0
vestmanna,62.1564,-7.1664,41.0,100.0,75.0,8.05,FO,1616707393.0
itoman,26.1247,127.6694,69.8,78.0,75.0,9.22,JP,1616707394.0
yamada,39.4667,141.95,43.92,87.0,5.0,3.53,JP,1616707396.0
baykit,61.67,96.37,9.23,99.0,98.0,1.25,RU,1616707398.0
tilichiki,60.4667,166.1,10.13,92.0,100.0,9.01,RU,1616707400.0
coihaique,-45.5752,-72.0662,62.6,27.0,0.0,8.05,CL,1616707405.0
kaithal,29.8,76.3833,63.99,33.0,0.0,8.12,IN,1616707407.0
hambantota,6.1241,81.1185,78.13,84.0,82.0,12.5,LK,1616707408.0
vardo,70.3705,31.1107,32.0,80.0,75.0,18.41,NO,1616707410.0
vao,-22.6667,167.4833,77.09,71.0,13.0,16.49,NC,1616707412.0
marfino,55.7028,37.3822,34.0,69.0,0.0,4.47,RU,1616707414.0
talcahuano,-36.7167,-73.1167,62.6,55.0,0.0,17.27,CL,1616707166.0
semnan,35.5729,53.3971,61.05,34.0,0.0,7.11,IR,1616707417.0
castro,-24.7911,-50.0119,67.69,89.0,65.0,3.89,BR,1616707419.0
ixtapa,20.7,-105.2,77.0,57.0,20.0,11.5,MX,1616707427.0
cayenne,4.9333,-52.3333,82.4,74.0,20.0,12.66,GF,1616707429.0
luoyang,34.6836,112.4536,60.01,99.0,100.0,4.29,CN,1616707430.0
pevek,69.7008,170.3133,-25.37,98.0,95.0,3.53,RU,1616707432.0
lompoc,34.6391,-120.4579,57.2,62.0,90.0,13.8,US,1616707138.0
oistins,13.0667,-59.5333,80.6,57.0,40.0,18.41,BB,1616707436.0
tarko-sale,64.9225,77.785,20.16,90.0,100.0,18.34,RU,1616707265.0
sur,22.5667,59.5289,76.91,59.0,15.0,8.88,OM,1616707439.0
coro,11.4045,-69.6734,83.01,58.0,65.0,20.69,VE,1616707441.0
intipuca,13.1969,-88.0544,102.2,34.0,0.0,6.91,SV,1616707443.0
desaguadero,-16.5656,-69.0417,56.39,44.0,45.0,10.94,PE,1616707444.0
bethel,41.3712,-73.414,73.4,49.0,1.0,9.22,US,1616707446.0
upernavik,72.7868,-56.1549,-21.37,84.0,44.0,4.41,GL,1616707448.0
lamar,33.6668,-95.5836,66.0,63.0,40.0,16.11,US,1616707450.0
mizdah,31.4451,12.9801,47.35,64.0,0.0,7.31,LY,1616707453.0
seminole,28.7086,-81.2081,91.99,37.0,20.0,11.5,US,1616707455.0
tepic,21.5,-104.9,86.0,37.0,40.0,5.75,MX,1616707269.0
dali,25.7,100.1833,48.63,56.0,0.0,5.17,CN,1616707460.0
noumea,-22.2763,166.4572,82.0,69.0,0.0,6.91,NC,1616707461.0
opuwo,-18.0607,13.84,68.88,83.0,69.0,5.37,NA,1616707463.0
wilmington,34.2257,-77.9447,75.0,73.0,75.0,14.97,US,1616707415.0
gasa,31.5,34.4667,55.4,71.0,20.0,6.91,PS,1616707468.0
khor,47.8861,134.9464,18.39,93.0,100.0,2.01,RU,1616707472.0
indianola,41.3581,-93.5574,42.8,87.0,90.0,3.44,US,1616707473.0
shakiso,5.75,38.9167,56.91,41.0,4.0,4.27,ET,1616707475.0
deputatskiy,69.3,139.9,-27.38,98.0,83.0,5.32,RU,1616707477.0
margate,51.3813,1.3862,48.99,74.0,9.0,4.0,GB,1616707479.0
husavik,66.0449,-17.3389,26.6,93.0,90.0,10.36,IS,1616707480.0
nizwa,22.9333,57.5333,73.44,40.0,3.0,2.82,OM,1616707482.0
kavieng,-2.5744,150.7967,83.17,77.0,95.0,13.71,PG,1616707484.0
nikolskoye,59.7035,30.7861,37.99,93.0,52.0,4.47,RU,1616707486.0
talnakh,69.4865,88.3972,15.4,95.0,100.0,10.47,RU,1616707488.0
vostok,46.4856,135.8833,18.25,95.0,99.0,3.51,RU,1616707489.0
zhezkazgan,47.8043,67.7144,27.86,80.0,96.0,14.5,KZ,1616707491.0
nalut,30.3333,10.85,54.28,36.0,0.0,11.72,LY,1616707493.0
victoria,22.2855,114.1577,68.0,78.0,8.0,1.01,HK,1616707495.0
faanui,-16.4833,-151.75,83.19,73.0,75.0,20.0,PF,1616707496.0
dikson,73.5069,80.5464,-1.53,98.0,52.0,5.35,RU,1616707498.0
meulaboh,4.1363,96.1285,75.18,90.0,97.0,2.01,ID,1616707500.0
hami,42.8,93.45,49.48,35.0,0.0,2.44,CN,1616707507.0
cidreira,-30.1811,-50.2056,75.49,81.0,1.0,19.15,BR,1616707238.0
pangody,65.85,74.4859,24.13,94.0,100.0,19.8,RU,1616707511.0
nchelenge,-9.3451,28.734,70.61,83.0,94.0,2.1,ZM,1616707515.0
batagay-alyta,67.8006,130.4114,-16.89,93.0,100.0,1.63,RU,1616707518.0
teguldet,57.3064,88.1667,23.65,98.0,100.0,1.41,RU,1616707520.0
pampa,35.5362,-100.9599,59.0,36.0,1.0,16.11,US,1616707473.0
ilulissat,69.2167,-51.1,-5.8,71.0,75.0,4.61,GL,1616707523.0
avera,33.194,-82.5271,82.99,51.0,40.0,13.8,US,1616707525.0
alappuzha,9.49,76.3264,81.0,78.0,85.0,2.98,IN,1616707529.0
udachnyy,66.4167,112.4,8.76,96.0,100.0,5.79,RU,1616707530.0
constitucion,-35.3333,-72.4167,60.98,61.0,0.0,16.4,CL,1616707256.0
kununurra,-15.7667,128.7333,77.0,76.0,100.0,1.7,AU,1616707534.0
ust-nera,64.5667,143.2,-19.88,99.0,81.0,3.56,RU,1616707539.0
chifeng,42.2683,118.9636,46.51,39.0,100.0,5.44,CN,1616707540.0
karlskoga,59.3267,14.5239,41.0,81.0,23.0,9.22,SE,1616707544.0
razdolinsk,58.4211,94.6658,12.51,98.0,100.0,1.95,RU,1616707546.0
tavda,58.0425,65.2726,34.09,92.0,100.0,10.29,RU,1616707547.0
tautira,-17.7333,-149.15,89.6,58.0,20.0,9.22,PF,1616707551.0
nuuk,64.1835,-51.7216,5.0,66.0,75.0,5.75,GL,1616707552.0
mailsi,29.8003,72.1758,70.14,34.0,29.0,6.76,PK,1616707554.0
leninskoye,41.7589,69.3864,64.4,48.0,20.0,11.5,KZ,1616707559.0
kattivakkam,13.2167,80.3167,78.8,89.0,40.0,2.3,IN,1616707561.0
saint-joseph,-21.3667,55.6167,77.0,83.0,20.0,5.75,RE,1616707563.0
katherine,-14.4667,132.2667,77.0,100.0,79.0,3.91,AU,1616707566.0
inhambane,-23.865,35.3833,74.12,79.0,9.0,7.14,MZ,1616707568.0
kamenka,51.3223,42.7678,30.0,82.0,84.0,9.46,RU,1616707570.0
fortuna,40.5982,-124.1573,53.01,71.0,75.0,18.41,US,1616707573.0
omsukchan,62.5333,155.8,-14.33,93.0,100.0,4.21,RU,1616707575.0
dalianwan,39.0286,121.695,37.4,93.0,20.0,13.42,CN,1616707577.0
mitsamiouli,-11.3847,43.2844,82.44,73.0,18.0,4.23,KM,1616707578.0
patacamaya,-17.2333,-67.9167,58.48,42.0,82.0,5.93,BO,1616707582.0
bud,39.447,-86.1758,60.01,96.0,100.0,3.91,US,1616707584.0
kokoda,-8.8785,147.7407,74.66,94.0,47.0,0.67,PG,1616707587.0
severo-kurilsk,50.6789,156.125,28.67,77.0,100.0,5.53,RU,1616707589.0
paita,-5.0892,-81.1144,84.2,58.0,0.0,11.5,PE,1616707591.0
jaisinghnagar,23.7,81.3833,72.5,18.0,0.0,3.11,IN,1616707592.0
yulara,-25.2406,130.9889,66.2,72.0,4.0,6.33,AU,1616707594.0
fairmont,39.4851,-80.1426,63.0,87.0,100.0,1.99,US,1616707598.0
gladstone,-23.85,151.25,71.6,68.0,0.0,5.75,AU,1616707599.0
at-bashi,41.1702,75.8106,32.38,64.0,88.0,4.23,KG,1616707601.0
waingapu,-9.6567,120.2641,77.63,85.0,87.0,3.62,ID,1616707603.0
mehamn,71.0357,27.8492,33.8,51.0,75.0,16.11,NO,1616707605.0
katsuura,35.1333,140.3,53.6,50.0,0.0,9.22,JP,1616707606.0
raton,36.9034,-104.4391,42.8,61.0,1.0,10.36,US,1616707608.0
seydi,39.4816,62.9137,62.42,75.0,100.0,15.01,TM,1616707610.0
maragogi,-9.0122,-35.2225,79.18,76.0,35.0,8.72,BR,1616707613.0
ust-omchug,61.15,149.6333,-19.37,98.0,94.0,1.32,RU,1616707617.0
araxa,-19.5933,-46.9406,84.2,39.0,40.0,4.61,BR,1616707375.0
aktash,50.3,87.7333,15.08,83.0,100.0,4.41,RU,1616707622.0
port-gentil,-0.7193,8.7815,78.8,94.0,20.0,1.14,GA,1616707625.0
waw,7.7029,27.9953,83.44,54.0,62.0,8.08,SS,1616707628.0
chancay,-11.5714,-77.2672,75.99,68.0,0.0,12.66,PE,1616707630.0
baijiantan,45.6333,85.1833,40.51,56.0,93.0,1.92,CN,1616707632.0
rio grande,-0.9156,-48.0594,78.8,83.0,75.0,4.61,BR,1616707634.0
mackenzie,55.2999,-123.1698,32.0,47.0,1.0,8.05,CA,1616707636.0
lavrentiya,65.5833,-171.0,3.0,84.0,28.0,2.46,RU,1616707639.0
neyshabur,36.2133,58.7958,64.99,41.0,100.0,3.98,IR,1616707641.0
magog,45.2668,-72.1491,69.8,54.0,100.0,11.5,CA,1616707588.0
bolitoc,15.7395,119.8769,78.46,74.0,6.0,2.77,PH,1616707644.0
fukue,32.6881,128.8419,58.69,53.0,59.0,8.5,JP,1616707646.0
mamou,10.5,-12.0,81.39,38.0,47.0,7.25,GN,1616707648.0
cascais,38.6979,-9.4215,55.99,76.0,100.0,14.0,PT,1616707651.0
dori,14.0354,-0.0345,89.44,9.0,100.0,14.85,BF,1616707654.0
busayra,30.7376,35.6078,47.14,60.0,0.0,2.39,JO,1616707656.0
gunjur,13.2019,-16.7339,71.6,78.0,0.0,10.36,GM,1616707660.0
yellowknife,62.456,-114.3525,9.0,52.0,75.0,5.75,CA,1616707465.0
almeria,37.1667,-2.3333,61.0,88.0,0.0,2.95,ES,1616707663.0
lucea,18.451,-78.1736,84.2,70.0,20.0,20.71,JM,1616707665.0
acapulco,16.8634,-99.8901,84.2,65.0,20.0,6.91,MX,1616707506.0
pychas,56.5033,52.4409,32.0,74.0,100.0,1.01,RU,1616707668.0
formosa,-26.1775,-58.1781,91.4,58.0,75.0,6.91,AR,1616707670.0
esperance,-33.8667,121.9,55.4,88.0,90.0,4.61,AU,1616707672.0
portland,45.5234,-122.6762,53.01,58.0,75.0,8.05,US,1616707147.0
goma,-1.6792,29.2228,64.13,87.0,100.0,2.3,CD,1616707675.0
nanortalik,60.1432,-45.2371,15.55,61.0,82.0,21.74,GL,1616707677.0
lengshuijiang,27.6881,111.4294,63.12,80.0,55.0,2.35,CN,1616707679.0
biu,10.6129,12.1946,84.33,16.0,90.0,11.61,NG,1616707680.0
luderitz,-26.6481,15.1594,62.89,93.0,5.0,6.51,NA,1616707685.0
ulladulla,-35.35,150.4667,59.0,88.0,40.0,1.14,AU,1616707689.0
san,13.3034,-4.8956,91.4,9.0,97.0,16.11,ML,1616707501.0
maniitsoq,65.4167,-52.9,0.82,85.0,100.0,14.47,GL,1616707692.0
florianopolis,-27.6146,-48.5012,82.0,83.0,40.0,10.36,BR,1616707694.0
salekhard,66.53,66.6019,31.91,80.0,94.0,17.22,RU,1616707696.0
namanga,-2.5433,36.7905,70.86,55.0,51.0,9.13,KE,1616707699.0
gizo,-8.103,156.8419,82.67,74.0,33.0,4.9,SB,1616707701.0
tiksi,71.6872,128.8694,4.35,85.0,100.0,12.08,RU,1616707703.0
bowen,-20.0167,148.2333,75.2,94.0,7.0,2.3,AU,1616707704.0
halifax,44.6453,-63.5724,51.01,93.0,90.0,5.75,CA,1616707585.0
sarai,53.7458,41.0213,30.79,95.0,100.0,6.33,RU,1616707717.0
nara,34.6851,135.8049,48.0,100.0,20.0,3.44,JP,1616707719.0
mabaruma,8.2,-59.7833,79.93,74.0,31.0,6.73,GY,1616707722.0
manta,-0.95,-80.7333,80.6,74.0,20.0,12.66,EC,1616707724.0
rockingham,42.9668,-71.0995,66.0,78.0,81.0,1.01,US,1616707517.0
kiama,-34.6833,150.8667,61.0,89.0,58.0,1.01,AU,1616707731.0
akureyri,65.6835,-18.0878,26.6,93.0,90.0,10.36,IS,1616707733.0
pangnirtung,66.1451,-65.7125,-23.8,57.0,1.0,3.44,CA,1616707736.0
suoyarvi,62.0833,32.35,34.92,93.0,86.0,8.1,RU,1616707739.0
carnarvon,-24.8667,113.6333,71.6,64.0,82.0,14.97,AU,1616707743.0
zhigansk,66.7697,123.3711,1.35,95.0,100.0,19.77,RU,1616707745.0
sitka,57.0531,-135.33,39.2,81.0,90.0,11.5,US,1616707746.0
granada,37.25,-3.25,57.0,43.0,14.0,3.36,ES,1616707748.0
gopalpur,19.2667,84.9167,77.88,70.0,12.0,5.64,IN,1616707750.0
itarema,-2.9248,-39.9167,78.8,80.0,68.0,8.34,BR,1616707753.0
varena,54.2167,24.5667,39.2,81.0,100.0,4.61,LT,1616707755.0
anloga,5.7947,0.8973,82.4,78.0,20.0,8.05,GH,1616707757.0
barcelos,41.5388,-8.6151,53.01,82.0,0.0,5.75,PT,1616707570.0
eenhana,-17.4667,16.3333,75.33,60.0,100.0,4.81,NA,1616707760.0
isangel,-19.55,169.2667,82.4,65.0,20.0,2.3,VU,1616707762.0
montepuez,-13.1256,38.9997,68.05,97.0,3.0,3.85,MZ,1616707746.0
bilibino,68.0546,166.4372,-17.27,90.0,79.0,3.49,RU,1616707765.0
hobyo,5.3505,48.5268,78.85,56.0,2.0,13.87,SO,1616707767.0
colombia,20.9881,-77.4297,89.6,51.0,40.0,14.97,CU,1616707769.0
pyaozerskiy,65.8333,31.1667,26.28,93.0,12.0,6.24,RU,1616707771.0
salta,-24.7859,-65.4117,75.2,69.0,75.0,8.05,AR,1616707756.0
anadyr,64.75,177.4833,8.6,61.0,75.0,8.95,RU,1616707776.0
lichuan,30.3,108.85,48.49,93.0,100.0,3.18,CN,1616707779.0
yerbogachen,61.2767,108.0108,22.64,88.0,100.0,12.06,RU,1616707781.0
okhotsk,59.3833,143.3,4.35,96.0,100.0,6.58,RU,1616707783.0
vestmannaeyjar,63.4427,-20.2734,37.78,66.0,100.0,7.49,IS,1616707784.0
nome,64.5011,-165.4064,16.0,73.0,1.0,6.91,US,1616707786.0
ostrovnoy,68.0531,39.5131,31.95,93.0,100.0,13.09,RU,1616707790.0
sergach,55.5308,45.4661,33.37,95.0,100.0,2.62,RU,1616707791.0
orumiyeh,37.5527,45.0761,41.0,38.0,20.0,6.91,IR,1616707527.0
baghdad,33.3406,44.4009,59.0,44.0,0.0,2.3,IQ,1616707495.0
luza,60.6308,47.2512,32.23,94.0,97.0,5.91,RU,1616707798.0
guaruja,-23.9931,-46.2564,82.99,78.0,75.0,5.75,BR,1616707800.0
nuevitas,21.5453,-77.2644,89.6,51.0,40.0,14.97,CU,1616707801.0
srednekolymsk,67.45,153.6833,-13.32,99.0,100.0,4.74,RU,1616707803.0
kondinskoye,59.6481,67.41,33.19,99.0,100.0,10.78,RU,1616707805.0
kulu,39.0951,33.0799,24.94,86.0,75.0,6.33,TR,1616707807.0
massaguet,12.4755,15.4365,87.8,15.0,10.0,8.05,TD,1616707809.0
saint-pierre,-21.3393,55.4781,77.0,83.0,20.0,5.75,RE,1616707701.0
shenjiamen,29.9576,122.298,53.83,86.0,6.0,8.57,CN,1616707812.0
benghazi,32.1167,20.0667,56.62,65.0,15.0,14.36,LY,1616707814.0
honiara,-9.4333,159.95,83.28,75.0,45.0,7.25,SB,1616707817.0
birao,10.2849,22.7882,81.3,50.0,88.0,2.8,CF,1616707819.0
oussouye,12.485,-16.5469,80.6,88.0,0.0,4.61,SN,1616707821.0
bubaque,11.2833,-15.8333,76.93,75.0,0.0,20.2,GW,1616707822.0
boundiali,9.5217,-6.4869,83.91,29.0,14.0,0.4,CI,1616707824.0
quthing,-30.4,27.7003,57.15,81.0,100.0,2.19,LS,1616707826.0
shimoda,34.6667,138.95,51.01,75.0,0.0,1.72,JP,1616707828.0
paamiut,61.994,-49.6678,10.53,90.0,100.0,8.7,GL,1616707830.0
clinton,42.587,-82.9199,64.99,67.0,90.0,4.61,US,1616707831.0
korla,41.7597,86.1469,49.46,37.0,1.0,3.36,CN,1616707833.0
cherskiy,68.75,161.3,-16.44,95.0,98.0,3.89,RU,1616707837.0
panalingaan,8.7842,117.4231,77.83,84.0,100.0,3.06,PH,1616707839.0
mwense,-10.3845,28.698,65.12,97.0,100.0,2.37,ZM,1616707840.0
atikokan,48.7555,-91.6216,34.41,68.0,98.0,7.43,CA,1616707842.0
gisborne,-38.6533,178.0042,61.75,79.0,20.0,2.62,NZ,1616707636.0
biak,-0.9131,122.8766,76.59,83.0,54.0,1.25,ID,1616707849.0
santa rosa,34.6799,-80.782,77.0,57.0,40.0,9.22,US,1616707850.0
ayna,-12.65,-73.9167,66.27,78.0,83.0,1.66,PE,1616707852.0
pringsewu,-5.3582,104.9744,72.52,95.0,72.0,2.01,ID,1616707854.0
tura,25.5198,90.2201,70.5,21.0,3.0,2.15,IN,1616707856.0
tapa,59.2606,25.9586,35.01,93.0,0.0,5.75,EE,1616707858.0
caravelas,-17.7125,-39.2481,76.89,81.0,0.0,6.58,BR,1616707859.0
fushun,41.8558,123.9233,35.6,69.0,0.0,6.71,CN,1616707861.0
kavaratti,10.5669,72.642,82.18,74.0,25.0,1.72,IN,1616707865.0
pangai,-19.8,-174.35,82.4,94.0,75.0,5.75,TO,1616707868.0
rocha,-34.4833,-54.3333,67.21,99.0,100.0,6.51,UY,1616707826.0
buraydah,26.326,43.975,69.8,35.0,0.0,18.41,SA,1616707871.0
hit,33.6416,42.8251,60.64,47.0,2.0,11.88,IQ,1616707873.0
rosarito,32.3333,-117.0333,59.0,62.0,75.0,16.11,MX,1616707875.0
hohhot,40.8106,111.6522,44.6,93.0,40.0,4.47,CN,1616707877.0
matamoros,25.5333,-103.25,78.8,11.0,1.0,8.93,MX,1616707878.0
rawson,-43.3002,-65.1023,66.11,30.0,0.0,17.9,AR,1616707855.0
pangkalanbuun,-2.6833,111.6167,74.34,97.0,100.0,1.41,ID,1616707776.0
waupun,43.6333,-88.7296,42.8,81.0,90.0,8.05,US,1616707888.0
sibolga,1.7427,98.7792,74.46,94.0,100.0,0.96,ID,1616707892.0
kovdor,67.5662,30.4758,15.4,95.0,19.0,4.16,RU,1616707893.0
chimbarongo,-34.7,-71.05,72.0,46.0,40.0,4.61,CL,1616707895.0
snasa,64.2457,12.3778,41.0,81.0,75.0,4.61,NO,1616707897.0
cairns,-16.9167,145.7667,78.01,83.0,75.0,5.75,AU,1616707899.0
mecca,21.4267,39.8261,75.74,49.0,1.0,4.61,SA,1616707901.0
narsaq,60.9167,-46.05,14.0,37.0,1.0,6.91,GL,1616707902.0
lorengau,-2.0226,147.2712,82.58,78.0,96.0,9.1,PG,1616707904.0
anupgarh,29.1911,73.2086,72.86,34.0,43.0,6.17,IN,1616707907.0
colquiri,-17.4167,-67.1333,45.01,64.0,92.0,3.29,BO,1616707909.0
mugur-aksy,50.35,90.5,19.26,58.0,97.0,9.08,RU,1616707911.0
kholtoson,50.2981,103.3097,18.55,95.0,69.0,2.1,RU,1616707913.0
jalu,29.0331,21.5482,52.52,53.0,37.0,9.06,LY,1616707915.0
ermelo,-26.5333,29.9833,52.66,94.0,45.0,4.83,ZA,1616707916.0
kamennogorsk,60.9545,29.1339,30.0,91.0,44.0,3.6,RU,1616707918.0
coquimbo,-29.9533,-71.3436,64.4,63.0,0.0,12.66,CL,1616707920.0
severo-yeniseyskiy,60.3725,93.0408,12.7,98.0,100.0,3.47,RU,1616707923.0
parfenyevo,58.484,43.4088,32.43,91.0,100.0,5.14,RU,1616707927.0
westport,41.1415,-73.3579,66.99,77.0,1.0,4.61,US,1616707928.0
chernyshevskiy,63.0128,112.4714,22.23,96.0,100.0,6.2,RU,1616707930.0
stykkisholmur,65.0757,-22.7297,24.4,73.0,100.0,37.63,IS,1616707934.0
cascas,-7.4833,-78.8167,71.37,68.0,79.0,7.11,PE,1616707935.0
ingham,42.6,-84.3833,55.4,62.0,90.0,12.66,US,1616707937.0
oltedal,58.831,6.0466,42.01,93.0,75.0,6.06,NO,1616707939.0
navahrudak,53.6,25.8333,35.44,85.0,100.0,5.23,BY,1616707941.0
luganville,-15.5333,167.1667,81.34,81.0,78.0,8.86,VU,1616707942.0
san pedro,21.399,-88.2723,92.03,34.0,0.0,20.47,MX,1616707946.0
svetlaya,46.5389,138.3297,30.97,66.0,19.0,4.5,RU,1616707948.0
magadan,59.5667,150.8,-2.67,73.0,18.0,2.89,RU,1616707951.0
kedrovyy,56.1667,91.8167,23.0,93.0,40.0,2.55,RU,1616707954.0
wakema,16.6,95.1833,78.17,81.0,100.0,9.8,MM,1616707959.0
muros,42.7762,-9.0603,53.01,72.0,96.0,1.01,ES,1616707961.0
nemuro,43.3236,145.575,34.2,97.0,100.0,16.55,JP,1616707963.0
killybegs,54.6333,-8.45,44.6,88.0,100.0,18.61,IE,1616707965.0
urumqi,43.801,87.6005,39.2,60.0,0.0,4.47,CN,1616707693.0
gusev,54.5922,22.1997,43.56,81.0,100.0,5.73,RU,1616707970.0
gympie,-26.1898,152.665,64.0,87.0,0.0,3.11,AU,1616707973.0
sagarejo,41.734,45.3315,41.0,65.0,0.0,27.63,GE,1616707975.0
roebourne,-20.7833,117.1333,79.29,69.0,26.0,5.99,AU,1616707976.0
wasilla,61.5814,-149.4394,32.0,93.0,90.0,2.44,US,1616707935.0
fairbanks,64.8378,-147.7164,30.99,93.0,90.0,3.44,US,1616707887.0
mishelevka,52.8575,103.1719,18.09,99.0,68.0,4.76,RU,1616707981.0
college,64.8569,-147.8028,30.0,74.0,90.0,3.65,US,1616707983.0
dongsheng,39.8161,109.9776,42.19,94.0,100.0,8.63,CN,1616707985.0
vilyuysk,63.7553,121.6247,9.91,89.0,100.0,8.84,RU,1616707987.0
kargopol,61.5071,38.9456,33.6,90.0,100.0,6.53,RU,1616707989.0
ust-tarka,55.5672,75.705,10.27,96.0,31.0,6.82,RU,1616707990.0
inta,66.0317,60.1659,31.44,93.0,100.0,20.04,RU,1616707992.0
yatou,37.15,122.3833,45.59,77.0,99.0,6.91,CN,1616707994.0
goure,13.9835,10.2704,81.0,8.0,8.0,11.01,NE,1616707996.0
hofn,64.2539,-15.2082,33.39,69.0,100.0,11.18,IS,1616707999.0
kudymkar,59.0173,54.656,33.12,93.0,100.0,7.25,RU,1616708001.0
ercis,39.0287,43.3586,32.0,55.0,75.0,6.91,TR,1616707885.0
tessalit,20.1986,1.0114,71.49,9.0,0.0,9.73,ML,1616708004.0
chadan,51.2833,91.5833,27.03,73.0,100.0,3.91,RU,1616708006.0
kalghatgi,15.1833,74.9667,77.74,57.0,49.0,2.26,IN,1616708008.0
tazovskiy,67.4667,78.7,16.88,91.0,100.0,13.85,RU,1616708010.0
kodiak,57.79,-152.4072,44.6,53.0,1.0,3.44,US,1616708011.0
northam,51.0333,-4.2167,52.0,92.0,84.0,8.99,GB,1616708013.0
clarksburg,39.2807,-80.3445,64.0,82.0,90.0,6.91,US,1616707800.0
bilma,18.6853,12.9164,70.12,11.0,0.0,14.32,NE,1616708017.0
havre-saint-pierre,50.2334,-63.5986,37.4,100.0,90.0,3.44,CA,1616708018.0
fleetwood,53.9253,-3.0109,50.0,76.0,40.0,17.27,GB,1616708020.0
seguela,7.9611,-6.6731,80.37,50.0,73.0,5.01,CI,1616708022.0
yar-sale,66.8333,70.8333,30.78,89.0,100.0,14.72,RU,1616708024.0
ilhabela,-23.7781,-45.3581,77.41,86.0,64.0,2.28,BR,1616708027.0
collinsville,38.6703,-89.9846,55.4,88.0,90.0,10.36,US,1616708030.0
ormara,25.2088,64.6357,76.98,56.0,0.0,8.28,PK,1616708032.0
mezen,65.8522,44.24,32.65,97.0,100.0,12.33,RU,1616708034.0
mujiayingzi,42.1167,118.7833,47.52,46.0,100.0,6.53,CN,1616708037.0
ayan,56.45,138.1667,5.76,80.0,7.0,7.92,RU,1616708039.0
isiro,2.7739,27.616,65.98,95.0,100.0,2.68,CD,1616708041.0
zarichne,51.8126,26.129,36.72,82.0,98.0,3.0,UA,1616708043.0
kazanskaya,45.4106,40.4361,39.0,75.0,100.0,15.28,RU,1616708044.0
lebanon,36.2081,-86.2911,70.0,83.0,75.0,12.66,US,1616708048.0
sangueya,10.7,-14.3667,74.88,76.0,9.0,6.24,GN,1616708050.0
champerico,14.3,-91.9167,93.2,52.0,40.0,4.61,GT,1616708051.0
rebrikha,53.0733,82.3408,26.11,95.0,100.0,9.71,RU,1616708053.0
lysva,58.1086,57.8053,32.9,96.0,100.0,8.39,RU,1616708055.0
lokosovo,61.1333,74.8167,21.31,90.0,100.0,11.16,RU,1616708057.0
eureka,40.8021,-124.1637,52.0,62.0,20.0,18.41,US,1616707834.0
iwanai,42.9744,140.5089,40.5,97.0,91.0,3.02,JP,1616708062.0
gwembe,-16.4975,27.6069,61.75,90.0,21.0,1.54,ZM,1616708063.0
olafsvik,64.8945,-23.7142,25.88,72.0,100.0,39.39,IS,1616708065.0
gouyave,12.1646,-61.7296,82.4,69.0,20.0,17.27,GD,1616708067.0
cururupu,-1.8283,-44.8683,73.22,97.0,100.0,2.01,BR,1616708070.0
praya,14.9215,-23.5087,69.8,73.0,20.0,16.11,CV,1616708072.0
teguise,29.0605,-13.564,73.4,40.0,0.0,11.5,ES,1616708075.0
aswan,24.0934,32.907,65.98,22.0,0.0,16.31,EG,1616708077.0
mananjary,-21.2167,48.3333,73.94,90.0,37.0,4.5,MG,1616708079.0
mandan,46.8267,-100.8896,59.0,38.0,20.0,19.57,US,1616708081.0
urucara,-2.5364,-57.76,73.31,97.0,100.0,1.28,BR,1616708083.0
kishi,9.0833,3.85,79.03,68.0,81.0,10.98,NG,1616708084.0
divnomorskoye,44.5011,38.1353,42.31,74.0,95.0,12.1,RU,1616708086.0
nogliki,51.8333,143.1667,14.86,86.0,68.0,0.96,RU,1616708088.0
akdepe,42.0551,59.3788,50.0,87.0,0.0,6.91,TM,1616708090.0
sorong,-0.8833,131.25,78.85,84.0,100.0,3.27,ID,1616708091.0
bairnsdale,-37.8333,147.6167,55.0,93.0,4.0,1.01,AU,1616708095.0
puurmani,58.5738,26.2878,39.99,87.0,40.0,14.97,EE,1616708098.0
kloulklubed,7.0419,134.2556,78.8,94.0,90.0,11.5,PW,1616708100.0
beringovskiy,63.05,179.3167,6.3,93.0,100.0,4.54,RU,1616708103.0
boende,-0.2167,20.8667,68.25,96.0,89.0,2.42,CD,1616708107.0
ahipara,-35.1667,173.1667,68.92,62.0,100.0,9.08,NZ,1616708109.0
broome,42.2506,-75.833,70.0,43.0,1.0,6.91,US,1616708110.0
brasilia,-15.7797,-47.9297,78.8,41.0,40.0,6.91,BR,1616707953.0
ambovombe,-25.1667,46.0833,72.52,77.0,0.0,10.65,MG,1616708114.0
nioro,13.35,-15.75,82.54,38.0,0.0,10.11,GM,1616708115.0
baiyin,36.5583,104.2081,46.0,65.0,75.0,2.24,CN,1616708117.0
paris,48.8534,2.3488,50.0,66.0,0.0,3.44,FR,1616707952.0
ondjiva,-17.0667,15.7333,74.95,61.0,98.0,2.35,AO,1616708121.0
salalah,17.0151,54.0924,77.0,69.0,0.0,1.14,OM,1616708122.0
yumen,40.2833,97.2,41.29,37.0,11.0,6.53,CN,1616708124.0
gejiu,23.306,103.1635,47.23,86.0,47.0,4.41,CN,1616708127.0
cajamarca,-7.1638,-78.5003,58.69,86.0,94.0,3.67,PE,1616707994.0
taybad,34.74,60.7756,75.96,24.0,98.0,12.24,IR,1616708131.0
matagami,49.7502,-77.6328,26.6,86.0,90.0,16.11,CA,1616708133.0
lawton,34.6087,-98.3903,64.0,42.0,1.0,11.5,US,1616708017.0
ulaangom,49.9811,92.0667,18.23,91.0,100.0,3.4,MN,1616708138.0
karaton,-6.3424,106.1045,78.01,83.0,100.0,5.75,ID,1616708139.0
fez,34.0372,-4.9998,51.8,76.0,0.0,6.91,MA,1616707946.0
sola,-13.8833,167.55,82.4,83.0,40.0,8.3,VU,1616708143.0
tomatlan,19.9333,-105.25,85.66,23.0,12.0,10.38,MX,1616708144.0
bamberg,49.8795,10.8863,48.0,67.0,44.0,1.99,DE,1616708148.0
mongo,12.1844,18.693,87.49,14.0,22.0,9.91,TD,1616708150.0
vakhtan,57.9659,46.6889,33.01,94.0,100.0,5.7,RU,1616708151.0
lubango,-14.9172,13.4925,60.06,97.0,100.0,2.82,AO,1616708153.0
tamandare,-8.7597,-35.1047,79.11,78.0,72.0,7.83,BR,1616708155.0
wangqing,43.3218,129.7634,37.89,87.0,94.0,2.66,CN,1616707887.0
asosa,10.0667,34.5333,73.22,38.0,5.0,1.59,ET,1616708163.0
norilsk,69.3535,88.2027,14.92,93.0,100.0,8.32,RU,1616708165.0
saint-felicien,48.6501,-72.4491,55.4,62.0,90.0,16.11,CA,1616708167.0
lubao,14.9167,120.55,75.2,78.0,40.0,2.3,PH,1616708169.0
pisco,-13.7,-76.2167,75.2,64.0,0.0,26.46,PE,1616708170.0
